{
    "country": "US",
    "id": 32841,
    "language": "en-gl",
    "location": {
        "lat": 42.36008,
        "lon": -71.05888
    },
    "name": "Boston, MA",
    "search_volume": 477400,
    "slug": "boston-ma",
    "transportation_category": [
        "bus"
    ],
    "uuid": "eeff627f-2fda-4e75-8468-783d47955b3a",
    "stations": [
        {
            "@context": "https://schema.org",
            "@type": "BusStop",
            "name": "Boston (South Station)",
            "openingHours": "Mo-Su",
            "address": {
                "@type": "PostalAddress",
                "addressCountry": "United States",
                "addressLocality": "Boston, MA",
                "postalCode": "02111",
                "streetAddress": "700 Atlantic Ave"
            },
            "latitude": 42.350469,
            "longitude": -71.05618
        },
        {
            "@context": "https://schema.org",
            "@type": "BusStop",
            "name": "Brookline",
            "openingHours": "Mo-Su",
            "address": {
                "@type": "PostalAddress",
                "addressCountry": "United States",
                "addressLocality": "Boston, MA",
                "postalCode": "02446",
                "streetAddress": "278 Harvard St"
            },
            "latitude": 42.342586,
            "longitude": -71.122005
        },
        {
            "@context": "https://schema.org",
            "@type": "BusStop",
            "name": "Cambridge (MA)",
            "openingHours": "Mo-Su",
            "address": {
                "@type": "PostalAddress",
                "addressCountry": "United States",
                "addressLocality": "Boston, MA",
                "postalCode": "02140",
                "streetAddress": "151 Steel Place"
            },
            "latitude": 42.394018,
            "longitude": -71.141704
        }
    ]
}