{
    "country": "US",
    "id": 48191,
    "language": "en-gl",
    "location": {
        "lat": 41.878113,
        "lon": -87.6298
    },
    "name": "Chicago, IL",
    "search_volume": 430200,
    "slug": "chicago-il",
    "transportation_category": [
        "bus"
    ],
    "uuid": "97a51149-150b-4ecf-a1fa-aadaeb61bf02",
    "stations": [
        {
            "@context": "https://schema.org",
            "@type": "BusStop",
            "name": "Chicago Bus Station",
            "openingHours": "Mo-Su",
            "address": {
                "@type": "PostalAddress",
                "addressCountry": "United States",
                "addressLocality": "Chicago, IL",
                "postalCode": "60607",
                "streetAddress": "630 W Harrison St"
            },
            "latitude": 41.874847,
            "longitude": -87.643517
        },
        {
            "@context": "https://schema.org",
            "@type": "BusStop",
            "name": "Chicago Cumberland Ave",
            "openingHours": "Mo-Su",
            "address": {
                "@type": "PostalAddress",
                "addressCountry": "United States",
                "addressLocality": "Chicago, IL",
                "postalCode": "60631",
                "streetAddress": "5800 N Cumberland Ave"
            },
            "latitude": 41.983843,
            "longitude": -87.839304
        },
        {
            "@context": "https://schema.org",
            "@type": "BusStop",
            "name": "Chicago Train Station",
            "openingHours": "Mo-Su",
            "address": {
                "@type": "PostalAddress",
                "addressCountry": "United States",
                "addressLocality": "Chicago, IL",
                "postalCode": "60606",
                "streetAddress": "225 S Canal St"
            },
            "latitude": 41.87874,
            "longitude": -87.6396
        }
    ]
}