{
    "country": "US",
    "id": 51411,
    "language": "en-gl",
    "location": {
        "lat": 29.210815,
        "lon": -81.022835
    },
    "name": "Daytona Beach, FL",
    "search_volume": 26700,
    "slug": "daytona-beach-fl",
    "transportation_category": [
        "bus"
    ],
    "uuid": "5a089008-0f54-4edd-849a-f68d611ce8d0",
    "stations": [
        {
            "@context": "https://schema.org",
            "@type": "BusStop",
            "name": "Daytona Beach",
            "openingHours": "Mo-Su",
            "address": {
                "@type": "PostalAddress",
                "addressCountry": "United States",
                "addressLocality": "Daytona Beach, FL",
                "postalCode": "32114",
                "streetAddress": "1429 Cornerstone Blvd"
            },
            "latitude": 29.212546,
            "longitude": -81.096822
        },
        {
            "@context": "https://schema.org",
            "@type": "BusStop",
            "name": "Daytona Beach Bus Station",
            "openingHours": "Mo-Su",
            "address": {
                "@type": "PostalAddress",
                "addressCountry": "United States",
                "addressLocality": "Daytona Beach, FL",
                "postalCode": "32114",
                "streetAddress": "138 S Ridgewood Ave"
            },
            "latitude": 29.209183,
            "longitude": -81.022789
        },
        {
            "@context": "https://schema.org",
            "@type": "BusStop",
            "name": "Edgewater (Marathon Gas)",
            "openingHours": "Mo-Su",
            "address": {
                "@type": "PostalAddress",
                "addressCountry": "United States",
                "addressLocality": "Daytona Beach, FL",
                "postalCode": "32132",
                "streetAddress": "3336 W Indian River Blvd"
            },
            "latitude": 28.950241,
            "longitude": -80.946854
        },
        {
            "@context": "https://schema.org",
            "@type": "BusStop",
            "name": "New Smyrna Beach (Tropical Gas Station)",
            "openingHours": "Mo-Su",
            "address": {
                "@type": "PostalAddress",
                "addressCountry": "United States",
                "addressLocality": "Daytona Beach, FL",
                "postalCode": "32168",
                "streetAddress": "2995 St Rt 44"
            },
            "latitude": 29.013375,
            "longitude": -80.991927
        }
    ]
}