{
    "country": "US",
    "id": 39611,
    "language": "en-gl",
    "location": {
        "lat": 36.072636,
        "lon": -79.79198
    },
    "name": "Greensboro, NC",
    "search_volume": 42200,
    "slug": "greensboro-nc",
    "transportation_category": [
        "bus"
    ],
    "uuid": "19e60e0b-874d-4a95-8ef0-0fbf27537e78",
    "stations": [
        {
            "@context": "https://schema.org",
            "@type": "BusStop",
            "name": "Greensboro",
            "openingHours": "Mo-Su",
            "address": {
                "@type": "PostalAddress",
                "addressCountry": "United States",
                "addressLocality": "Greensboro, NC",
                "postalCode": "27401",
                "streetAddress": "236 E Washington St"
            },
            "latitude": 36.069996,
            "longitude": -79.787544
        },
        {
            "@context": "https://schema.org",
            "@type": "BusStop",
            "name": "Greensboro Bus Station",
            "openingHours": "Mo-Su",
            "address": {
                "@type": "PostalAddress",
                "addressCountry": "United States",
                "addressLocality": "Greensboro, NC",
                "postalCode": "27401",
                "streetAddress": "234 A East Washington St"
            },
            "latitude": 36.069119,
            "longitude": -79.788499
        },
        {
            "@context": "https://schema.org",
            "@type": "BusStop",
            "name": "Greensboro South (NC)",
            "openingHours": "Mo-Su",
            "address": {
                "@type": "PostalAddress",
                "addressCountry": "United States",
                "addressLocality": "Greensboro, NC",
                "postalCode": "27407",
                "streetAddress": "3703 W Gate City Blvd"
            },
            "latitude": 36.037948,
            "longitude": -79.850964
        }
    ]
}