{
    "country": "US",
    "id": 26271,
    "language": "en-gl",
    "location": {
        "lat": 29.760427,
        "lon": -95.369804
    },
    "name": "Houston, TX",
    "search_volume": 410700,
    "slug": "houston-tx",
    "transportation_category": [
        "bus"
    ],
    "uuid": "364040d5-ebfc-4628-b7b0-13e2377203c6",
    "stations": [
        {
            "@context": "https://schema.org",
            "@type": "BusStop",
            "name": "Houston Downtown",
            "openingHours": "Mo-Su",
            "address": {
                "@type": "PostalAddress",
                "addressCountry": "United States",
                "addressLocality": "Houston, TX",
                "postalCode": "77002",
                "streetAddress": "605 Gray St"
            },
            "latitude": 29.75093,
            "longitude": -95.37448
        },
        {
            "@context": "https://schema.org",
            "@type": "BusStop",
            "name": "Houston Uptown/Upper Kirby",
            "openingHours": "Mo-Su",
            "address": {
                "@type": "PostalAddress",
                "addressCountry": "United States",
                "addressLocality": "Houston, TX",
                "postalCode": "77098",
                "streetAddress": "2525 Southwest Fwy"
            },
            "latitude": 29.729877,
            "longitude": -95.41838
        },
        {
            "@context": "https://schema.org",
            "@type": "BusStop",
            "name": "The Woodlands",
            "openingHours": "Mo-Su",
            "address": {
                "@type": "PostalAddress",
                "addressCountry": "United States",
                "addressLocality": "Houston, TX",
                "postalCode": "77380",
                "streetAddress": "1201 Lake Woodlands Dr"
            },
            "latitude": 30.163185,
            "longitude": -95.45635
        },
        {
            "@context": "https://schema.org",
            "@type": "BusStop",
            "name": "Baytown (Thompson & I-10 Service Rd)",
            "openingHours": "Mo-Su",
            "address": {
                "@type": "PostalAddress",
                "addressCountry": "United States",
                "addressLocality": "Houston, TX",
                "postalCode": "77521",
                "streetAddress": "6800 Thompson Rd"
            },
            "latitude": 29.796992,
            "longitude": -95.031609
        },
        {
            "@context": "https://schema.org",
            "@type": "BusStop",
            "name": "Houston Bus Station (Greyhound)",
            "openingHours": "Mo-Su",
            "address": {
                "@type": "PostalAddress",
                "addressCountry": "United States",
                "addressLocality": "Houston, TX",
                "postalCode": "77002",
                "streetAddress": "2121 Main St"
            },
            "latitude": 29.748093,
            "longitude": -95.371277
        },
        {
            "@context": "https://schema.org",
            "@type": "BusStop",
            "name": "Houston Southwest (Agencia - Autobuses)",
            "openingHours": "Mo-Su",
            "address": {
                "@type": "PostalAddress",
                "addressCountry": "United States",
                "addressLocality": "Houston, TX",
                "postalCode": "77074",
                "streetAddress": "6590 Sw Freeway"
            },
            "latitude": 29.71731,
            "longitude": -95.499319
        },
        {
            "@context": "https://schema.org",
            "@type": "BusStop",
            "name": "North Houston",
            "openingHours": "Mo-Su",
            "address": {
                "@type": "PostalAddress",
                "addressCountry": "United States",
                "addressLocality": "Houston, TX",
                "postalCode": "77009",
                "streetAddress": "210 Patton Street"
            },
            "latitude": 29.79791,
            "longitude": -95.37031
        }
    ]
}