{
    "country": "US",
    "id": 48301,
    "language": "en-gl",
    "location": {
        "lat": 44.977753,
        "lon": -93.26501
    },
    "name": "Minneapolis, MN",
    "search_volume": 102600,
    "slug": "minneapolis-mn",
    "transportation_category": [
        "bus"
    ],
    "uuid": "6d6d6408-e004-422f-b794-b6301f80a596",
    "stations": [
        {
            "@context": "https://schema.org",
            "@type": "BusStop",
            "name": "Minneapolis - University Of Mn",
            "openingHours": "Mo-Su",
            "address": {
                "@type": "PostalAddress",
                "addressCountry": "United States",
                "addressLocality": "Minneapolis, MN",
                "postalCode": "55455",
                "streetAddress": "2428 Delaware St Se"
            },
            "latitude": 44.97233,
            "longitude": -93.22283
        },
        {
            "@context": "https://schema.org",
            "@type": "BusStop",
            "name": "Minneapolis (Mall Of America)",
            "openingHours": "Mo-Su",
            "address": {
                "@type": "PostalAddress",
                "addressCountry": "United States",
                "addressLocality": "Minneapolis, MN",
                "postalCode": "55425",
                "streetAddress": "60 E Broadway"
            },
            "latitude": 44.85786,
            "longitude": -93.24144
        },
        {
            "@context": "https://schema.org",
            "@type": "BusStop",
            "name": "Minneapolis Bus Station",
            "openingHours": "Mo-Su",
            "address": {
                "@type": "PostalAddress",
                "addressCountry": "United States",
                "addressLocality": "Minneapolis, MN",
                "postalCode": "55403",
                "streetAddress": "950 Hawthorne Ave"
            },
            "latitude": 44.97724,
            "longitude": -93.278516
        },
        {
            "@context": "https://schema.org",
            "@type": "BusStop",
            "name": "Minneapolis-St Paul Airport",
            "openingHours": "Mo-Su",
            "address": {
                "@type": "PostalAddress",
                "addressCountry": "United States",
                "addressLocality": "Minneapolis, MN",
                "postalCode": "55111",
                "streetAddress": "4300 Glumack Dr"
            },
            "latitude": 44.882627,
            "longitude": -93.206081
        }
    ]
}