{
    "country": "US",
    "id": 27821,
    "language": "en-gl",
    "location": {
        "lat": 40.712776,
        "lon": -74.005974
    },
    "name": "New York, NY",
    "search_volume": 1731100,
    "slug": "new-york-ny",
    "transportation_category": [
        "bus"
    ],
    "uuid": "c0a47c54-53ea-46dc-984b-b764fc0b2fa9",
    "stations": [
        {
            "@context": "https://schema.org",
            "@type": "BusStop",
            "name": "New York Midtown (31st St & 8th Ave)",
            "openingHours": "Mo-Su",
            "address": {
                "@type": "PostalAddress",
                "addressCountry": "United States",
                "addressLocality": "New York, NY",
                "postalCode": "10001",
                "streetAddress": "300 W 31st Street"
            },
            "latitude": 40.750309,
            "longitude": -73.995269
        },
        {
            "@context": "https://schema.org",
            "@type": "BusStop",
            "name": "New York City Chinatown (28 Allen St)",
            "openingHours": "Mo-Su",
            "address": {
                "@type": "PostalAddress",
                "addressCountry": "United States",
                "addressLocality": "New York, NY",
                "postalCode": "10002",
                "streetAddress": "28 Allen St."
            },
            "latitude": 40.715652,
            "longitude": -73.991992
        },
        {
            "@context": "https://schema.org",
            "@type": "BusStop",
            "name": "New York (Port Authority)",
            "openingHours": "Mo-Su",
            "address": {
                "@type": "PostalAddress",
                "addressCountry": "United States",
                "addressLocality": "New York, NY",
                "postalCode": "10018",
                "streetAddress": "625 8Th Ave"
            },
            "latitude": 40.75695,
            "longitude": -73.9905
        },
        {
            "@context": "https://schema.org",
            "@type": "BusStop",
            "name": "New York City Chinatown (Bowery & Canal St)",
            "openingHours": "Mo-Su",
            "address": {
                "@type": "PostalAddress",
                "addressCountry": "United States",
                "addressLocality": "New York, NY",
                "postalCode": "10002",
                "streetAddress": "145 Canal St"
            },
            "latitude": 40.716388,
            "longitude": -73.995619
        },
        {
            "@context": "https://schema.org",
            "@type": "BusStop",
            "name": "New York Gw Bridge",
            "openingHours": "Mo-Su",
            "address": {
                "@type": "PostalAddress",
                "addressCountry": "United States",
                "addressLocality": "New York, NY",
                "postalCode": "10033",
                "streetAddress": "4211 Broadway"
            },
            "latitude": 40.848858,
            "longitude": -73.938313
        }
    ]
}