{
    "country": "US",
    "id": 36641,
    "language": "en-gl",
    "location": {
        "lat": 28.538336,
        "lon": -81.379234
    },
    "name": "Orlando, FL",
    "search_volume": 312200,
    "slug": "orlando-fl",
    "transportation_category": [
        "bus"
    ],
    "uuid": "54712d5f-3a01-4a41-8468-bece9ec172d5",
    "stations": [
        {
            "@context": "https://schema.org",
            "@type": "BusStop",
            "name": "Orlando International Airport",
            "openingHours": "Mo-Su",
            "address": {
                "@type": "PostalAddress",
                "addressCountry": "United States",
                "addressLocality": "Orlando, FL",
                "postalCode": "32827",
                "streetAddress": "1 Jeff Fuqua Blvd"
            },
            "latitude": 28.432313,
            "longitude": -81.307544
        },
        {
            "@context": "https://schema.org",
            "@type": "BusStop",
            "name": "Orlando Sand Lake Road",
            "openingHours": "Mo-Su",
            "address": {
                "@type": "PostalAddress",
                "addressCountry": "United States",
                "addressLocality": "Orlando, FL",
                "postalCode": "32809",
                "streetAddress": "8060 S Orange Ave"
            },
            "latitude": 28.452422,
            "longitude": -81.364396
        },
        {
            "@context": "https://schema.org",
            "@type": "BusStop",
            "name": "Orlando (The Florida Mall)",
            "openingHours": "Mo-Su",
            "address": {
                "@type": "PostalAddress",
                "addressCountry": "United States",
                "addressLocality": "Orlando, FL",
                "postalCode": "32809",
                "streetAddress": "8001 S Orange Blossom Trl"
            },
            "latitude": 28.446548,
            "longitude": -81.399686
        },
        {
            "@context": "https://schema.org",
            "@type": "BusStop",
            "name": "Orlando (Westside Crossings)",
            "openingHours": "Mo-Su",
            "address": {
                "@type": "PostalAddress",
                "addressCountry": "United States",
                "addressLocality": "Orlando, FL",
                "postalCode": "32808",
                "streetAddress": "5046 W Colonial Dr"
            },
            "latitude": 28.551952,
            "longitude": -81.44955
        },
        {
            "@context": "https://schema.org",
            "@type": "BusStop",
            "name": "Orlando Bus Station",
            "openingHours": "Mo-Su",
            "address": {
                "@type": "PostalAddress",
                "addressCountry": "United States",
                "addressLocality": "Orlando, FL",
                "postalCode": "32805",
                "streetAddress": "555 N John Young Pkwy"
            },
            "latitude": 28.547819,
            "longitude": -81.412781
        }
    ]
}