{
    "country": "US",
    "id": 27851,
    "language": "en-gl",
    "location": {
        "lat": 37.540726,
        "lon": -77.43605
    },
    "name": "Richmond, VA",
    "search_volume": 141100,
    "slug": "richmond-va",
    "transportation_category": [
        "bus"
    ],
    "uuid": "fefedffb-19fe-4ff5-ada8-47d715705a5a",
    "stations": [
        {
            "@context": "https://schema.org",
            "@type": "BusStop",
            "name": "Richmond Bus Station",
            "openingHours": "Mo-Su",
            "address": {
                "@type": "PostalAddress",
                "addressCountry": "United States",
                "addressLocality": "Richmond, VA",
                "postalCode": "23230",
                "streetAddress": "2910 N Arthur Ashe Blvd"
            },
            "latitude": 37.572304,
            "longitude": -77.465655
        },
        {
            "@context": "https://schema.org",
            "@type": "BusStop",
            "name": "Richmond (W Leigh St)",
            "openingHours": "Mo-Su",
            "address": {
                "@type": "PostalAddress",
                "addressCountry": "United States",
                "addressLocality": "Richmond, VA",
                "postalCode": "23220",
                "streetAddress": "900 W. Leigh Street"
            },
            "latitude": 37.553232146717875,
            "longitude": -77.4471037031376
        },
        {
            "@context": "https://schema.org",
            "@type": "BusStop",
            "name": "Henrico (Parham Rd Park & Ride)",
            "openingHours": "Mo-Su",
            "address": {
                "@type": "PostalAddress",
                "addressCountry": "United States",
                "addressLocality": "Richmond, VA",
                "postalCode": "23233",
                "streetAddress": "8531 Fordson Rd"
            },
            "latitude": 37.6197509,
            "longitude": -77.5568382
        }
    ]
}