{
    "country": "US",
    "id": 20228,
    "language": "en-gl",
    "location": {
        "lat": 38.581573,
        "lon": -121.4944
    },
    "name": "Sacramento, CA",
    "search_volume": 116000,
    "slug": "sacramento-ca",
    "transportation_category": [
        "bus"
    ],
    "uuid": "63f93218-ceff-4cd7-aff6-42bdf632b976",
    "stations": [
        {
            "@context": "https://schema.org",
            "@type": "BusStop",
            "name": "Sacramento (Old Sacramento 2nd St/J St)",
            "openingHours": "Mo-Su",
            "address": {
                "@type": "PostalAddress",
                "addressCountry": "United States",
                "addressLocality": "Sacramento, CA",
                "postalCode": "95814",
                "streetAddress": "961 2nd St"
            },
            "latitude": 38.583655,
            "longitude": -121.503862
        },
        {
            "@context": "https://schema.org",
            "@type": "BusStop",
            "name": "Sacramento Bus Station",
            "openingHours": "Mo-Su",
            "address": {
                "@type": "PostalAddress",
                "addressCountry": "United States",
                "addressLocality": "Sacramento, CA",
                "postalCode": "95811",
                "streetAddress": "420 Richards Blvd"
            },
            "latitude": 38.596741,
            "longitude": -121.49705
        },
        {
            "@context": "https://schema.org",
            "@type": "BusStop",
            "name": "Sacramento Midtown (29th St/K St)",
            "openingHours": "Mo-Su",
            "address": {
                "@type": "PostalAddress",
                "addressCountry": "United States",
                "addressLocality": "Sacramento, CA",
                "postalCode": "95816",
                "streetAddress": "2928 K Street"
            },
            "latitude": 38.572254,
            "longitude": -121.468003
        }
    ]
}