{
    "country": "US",
    "id": 20668,
    "language": "en-gl",
    "location": {
        "lat": 34.42083,
        "lon": -119.69819
    },
    "name": "Santa Barbara, CA",
    "search_volume": 25900,
    "slug": "santa-barbara-ca",
    "transportation_category": [
        "bus"
    ],
    "uuid": "5834e47f-bfcc-4d4b-9126-db0a6aa1179f",
    "stations": [
        {
            "@context": "https://schema.org",
            "@type": "BusStop",
            "name": "Santa Barbara (UC Santa Barbara Bus Loop - University of California, Santa Barbara)",
            "openingHours": "Mo-Su",
            "address": {
                "@type": "PostalAddress",
                "addressCountry": "United States",
                "addressLocality": "Santa Barbara, CA",
                "postalCode": "93106",
                "streetAddress": "UC Santa Barbara Bus Loop"
            },
            "latitude": 34.41497,
            "longitude": -119.848
        },
        {
            "@context": "https://schema.org",
            "@type": "BusStop",
            "name": "Santa Barbara Train Station",
            "openingHours": "Mo-Su",
            "address": {
                "@type": "PostalAddress",
                "addressCountry": "United States",
                "addressLocality": "Santa Barbara, CA",
                "postalCode": "93101",
                "streetAddress": "Santa Barbara Station"
            },
            "latitude": 34.413554,
            "longitude": -119.693269
        },
        {
            "@context": "https://schema.org",
            "@type": "BusStop",
            "name": "Santa Barbara (La Cumbre Plaza)",
            "openingHours": "Mo-Su",
            "address": {
                "@type": "PostalAddress",
                "addressCountry": "United States",
                "addressLocality": "Santa Barbara, CA",
                "postalCode": "93105",
                "streetAddress": "3845 State Street"
            },
            "latitude": 34.4365991168325,
            "longitude": -119.74942323643467
        },
        {
            "@context": "https://schema.org",
            "@type": "BusStop",
            "name": "Carpinteria (Carpinteria Ave)",
            "openingHours": "Mo-Su",
            "address": {
                "@type": "PostalAddress",
                "addressCountry": "United States",
                "addressLocality": "Santa Barbara, CA",
                "postalCode": "93013",
                "streetAddress": "5412 Carpinteria Ave"
            },
            "latitude": 34.395777383877146,
            "longitude": -119.51336027116413
        },
        {
            "@context": "https://schema.org",
            "@type": "BusStop",
            "name": "Goleta (Technology Dr)",
            "openingHours": "Mo-Su",
            "address": {
                "@type": "PostalAddress",
                "addressCountry": "United States",
                "addressLocality": "Santa Barbara, CA",
                "postalCode": "93117",
                "streetAddress": "750 Technology Dr"
            },
            "latitude": 34.429430922508345,
            "longitude": -119.82705077913673
        },
        {
            "@context": "https://schema.org",
            "@type": "BusStop",
            "name": "Santa Barbara (UC Santa Barbara Bus Loop - University of California, Santa Barbara)",
            "openingHours": "Mo-Su",
            "address": {
                "@type": "PostalAddress",
                "addressCountry": "United States",
                "addressLocality": "Santa Barbara, CA",
                "postalCode": "93117",
                "streetAddress": "UC Santa Barbara Bus Loop"
            },
            "latitude": 34.41497,
            "longitude": -119.848
        },
        {
            "@context": "https://schema.org",
            "@type": "BusStop",
            "name": "Santa Barbara Train Station",
            "openingHours": "Mo-Su",
            "address": {
                "@type": "PostalAddress",
                "addressCountry": "United States",
                "addressLocality": "Santa Barbara, CA",
                "postalCode": "93101",
                "streetAddress": "224 Chapala St"
            },
            "latitude": 34.413554,
            "longitude": -119.693269
        }
    ]
}