{
    "country": "US",
    "id": 36581,
    "language": "en-gl",
    "location": {
        "lat": 47.60621,
        "lon": -122.33207
    },
    "name": "Seattle, WA",
    "search_volume": 206200,
    "slug": "seattle-wa",
    "transportation_category": [
        "bus"
    ],
    "uuid": "e449edce-f86a-4ddd-8d24-fc2af4ef5f6e",
    "stations": [
        {
            "@context": "https://schema.org",
            "@type": "BusStop",
            "name": "Seattle (6th Ave S & S Lane St)",
            "openingHours": "Mo-Su",
            "address": {
                "@type": "PostalAddress",
                "addressCountry": "United States",
                "addressLocality": "Seattle, WA",
                "postalCode": "98104",
                "streetAddress": "622 S Lane St"
            },
            "latitude": 47.596746,
            "longitude": -122.326012
        },
        {
            "@context": "https://schema.org",
            "@type": "BusStop",
            "name": "Seattle-Tacoma International Airport",
            "openingHours": "Mo-Su",
            "address": {
                "@type": "PostalAddress",
                "addressCountry": "United States",
                "addressLocality": "Seattle, WA",
                "postalCode": "98188",
                "streetAddress": "Arrivals Drive (Main Terminal, Door 2)"
            },
            "latitude": 47.441795,
            "longitude": -122.299233
        },
        {
            "@context": "https://schema.org",
            "@type": "BusStop",
            "name": "Seattle (University of Washington)",
            "openingHours": "Mo-Su",
            "address": {
                "@type": "PostalAddress",
                "addressCountry": "United States",
                "addressLocality": "Seattle, WA",
                "postalCode": "98105",
                "streetAddress": "1100 NE Campus Pkwy"
            },
            "latitude": 47.656283,
            "longitude": -122.316081
        },
        {
            "@context": "https://schema.org",
            "@type": "BusStop",
            "name": "Seattle Arnold Med",
            "openingHours": "Mo-Su",
            "address": {
                "@type": "PostalAddress",
                "addressCountry": "United States",
                "addressLocality": "Seattle, WA",
                "postalCode": "98104",
                "streetAddress": "1301 Madison St"
            },
            "latitude": 47.610372,
            "longitude": -122.322694
        },
        {
            "@context": "https://schema.org",
            "@type": "BusStop",
            "name": "Seattle Bus Station",
            "openingHours": "Mo-Su",
            "address": {
                "@type": "PostalAddress",
                "addressCountry": "United States",
                "addressLocality": "Seattle, WA",
                "postalCode": "98134",
                "streetAddress": "503 S Royal Brougham Way"
            },
            "latitude": 47.59205,
            "longitude": -122.326
        },
        {
            "@context": "https://schema.org",
            "@type": "BusStop",
            "name": "Seattle Harborview Medical Center",
            "openingHours": "Mo-Su",
            "address": {
                "@type": "PostalAddress",
                "addressCountry": "United States",
                "addressLocality": "Seattle, WA",
                "postalCode": "98104",
                "streetAddress": "325 8Th Ave"
            },
            "latitude": 47.603514,
            "longitude": -122.324729
        },
        {
            "@context": "https://schema.org",
            "@type": "BusStop",
            "name": "Seattle Poly Clinic",
            "openingHours": "Mo-Su",
            "address": {
                "@type": "PostalAddress",
                "addressCountry": "United States",
                "addressLocality": "Seattle, WA",
                "postalCode": "98104",
                "streetAddress": "702 Marion St"
            },
            "latitude": 47.606994,
            "longitude": -122.32844
        },
        {
            "@context": "https://schema.org",
            "@type": "BusStop",
            "name": "Seattle Swedish First Hill",
            "openingHours": "Mo-Su",
            "address": {
                "@type": "PostalAddress",
                "addressCountry": "United States",
                "addressLocality": "Seattle, WA",
                "postalCode": "98104",
                "streetAddress": "1212 Cherry St"
            },
            "latitude": 47.607936,
            "longitude": -122.321473
        },
        {
            "@context": "https://schema.org",
            "@type": "BusStop",
            "name": "Seattle Train Station",
            "openingHours": "Mo-Su",
            "address": {
                "@type": "PostalAddress",
                "addressCountry": "United States",
                "addressLocality": "Seattle, WA",
                "postalCode": "98104",
                "streetAddress": "303 S. Jackson St @King St"
            },
            "latitude": 47.598317,
            "longitude": -122.329848
        },
        {
            "@context": "https://schema.org",
            "@type": "BusStop",
            "name": "Seattle Va Hospital",
            "openingHours": "Mo-Su",
            "address": {
                "@type": "PostalAddress",
                "addressCountry": "United States",
                "addressLocality": "Seattle, WA",
                "postalCode": "98108",
                "streetAddress": "1660 S Columbian Way"
            },
            "latitude": 47.563061,
            "longitude": -122.308232
        },
        {
            "@context": "https://schema.org",
            "@type": "BusStop",
            "name": "Seattle Virgin Mason Hospital",
            "openingHours": "Mo-Su",
            "address": {
                "@type": "PostalAddress",
                "addressCountry": "United States",
                "addressLocality": "Seattle, WA",
                "postalCode": "98101",
                "streetAddress": "9Th Ave & Spring St-Buck Pav"
            },
            "latitude": 47.609132,
            "longitude": -122.328009
        }
    ]
}