{
    "country": "US",
    "id": 47821,
    "language": "en-gl",
    "location": {
        "lat": 38.939926,
        "lon": -119.97719
    },
    "name": "South Lake Tahoe, CA",
    "search_volume": 3200,
    "slug": "south-lake-tahoe-ca",
    "transportation_category": [
        "bus"
    ],
    "uuid": "5acbd3c7-6caf-4003-9362-23ad9d0662d7",
    "stations": [
        {
            "@context": "https://schema.org",
            "@type": "BusStop",
            "name": "South Lake Tahoe (Edgewood Tahoe Resort)",
            "openingHours": "Mo-Su",
            "address": {
                "@type": "PostalAddress",
                "addressCountry": "United States",
                "addressLocality": "South Lake Tahoe, CA",
                "postalCode": "89449",
                "streetAddress": "180 Lake Pkwy"
            },
            "latitude": 38.965154,
            "longitude": -119.9476
        },
        {
            "@context": "https://schema.org",
            "@type": "BusStop",
            "name": "South Lake Tahoe (Hard Rock Hotel & Casino)",
            "openingHours": "Mo-Su",
            "address": {
                "@type": "PostalAddress",
                "addressCountry": "United States",
                "addressLocality": "South Lake Tahoe, CA",
                "postalCode": "89449",
                "streetAddress": "50 US-50"
            },
            "latitude": 38.96291786635737,
            "longitude": -119.94030924781967
        },
        {
            "@context": "https://schema.org",
            "@type": "BusStop",
            "name": "South Lake Tahoe (Harrah's Lake Tahoe Hotel)",
            "openingHours": "Mo-Su",
            "address": {
                "@type": "PostalAddress",
                "addressCountry": "United States",
                "addressLocality": "South Lake Tahoe, CA",
                "postalCode": "89449",
                "streetAddress": "15 US-50"
            },
            "latitude": 38.959215,
            "longitude": -119.940003
        },
        {
            "@context": "https://schema.org",
            "@type": "BusStop",
            "name": "South Lake Tahoe (Harveys Lake Tahoe Hotel)",
            "openingHours": "Mo-Su",
            "address": {
                "@type": "PostalAddress",
                "addressCountry": "United States",
                "addressLocality": "South Lake Tahoe, CA",
                "postalCode": "89449",
                "streetAddress": "18 Hwy 50"
            },
            "latitude": 38.960484,
            "longitude": -119.943596
        },
        {
            "@context": "https://schema.org",
            "@type": "BusStop",
            "name": "South Lake Tahoe (Lake Tahoe Resort Hotel)",
            "openingHours": "Mo-Su",
            "address": {
                "@type": "PostalAddress",
                "addressCountry": "United States",
                "addressLocality": "South Lake Tahoe, CA",
                "postalCode": "96150",
                "streetAddress": "4130 Lake Tahoe Blvd"
            },
            "latitude": 38.95863022664037,
            "longitude": -119.94152253919542
        },
        {
            "@context": "https://schema.org",
            "@type": "BusStop",
            "name": "South Lake Tahoe (Montbleu Resort & Casino)",
            "openingHours": "Mo-Su",
            "address": {
                "@type": "PostalAddress",
                "addressCountry": "United States",
                "addressLocality": "South Lake Tahoe, CA",
                "postalCode": "89449",
                "streetAddress": "55 US-50"
            },
            "latitude": 38.96109769970102,
            "longitude": -119.93991542159635
        }
    ]
}