{
    "country": "US",
    "id": 117663,
    "language": "en-gl",
    "location": {
        "lat": 39.683723,
        "lon": -75.74966
    },
    "name": "Wilmington-Newark, DE",
    "search_volume": 40800,
    "slug": "wilmington-newark-de",
    "transportation_category": [
        "bus"
    ],
    "uuid": "86450957-a623-4166-a560-7f4dc837071e",
    "stations": [
        {
            "@context": "https://schema.org",
            "@type": "BusStop",
            "name": "Delaware Welcome Center (Northbound)",
            "openingHours": "Mo-Su",
            "address": {
                "@type": "PostalAddress",
                "addressCountry": "United States",
                "addressLocality": "Wilmington-Newark, DE",
                "postalCode": "19702",
                "streetAddress": "530 John F Kennedy Memorial Hwy"
            },
            "latitude": 39.661443,
            "longitude": -75.691637
        },
        {
            "@context": "https://schema.org",
            "@type": "BusStop",
            "name": "Delaware Welcome Center (Southbound)",
            "openingHours": "Mo-Su",
            "address": {
                "@type": "PostalAddress",
                "addressCountry": "United States",
                "addressLocality": "Wilmington-Newark, DE",
                "postalCode": "19702",
                "streetAddress": "530 John F Kennedy Memorial Hwy"
            },
            "latitude": 39.661893,
            "longitude": -75.69196
        },
        {
            "@context": "https://schema.org",
            "@type": "BusStop",
            "name": "Newark (University of Delaware)",
            "openingHours": "Mo-Su",
            "address": {
                "@type": "PostalAddress",
                "addressCountry": "United States",
                "addressLocality": "Wilmington-Newark, DE",
                "postalCode": "19713",
                "streetAddress": "10 Mopar Drive"
            },
            "latitude": 39.669572,
            "longitude": -75.754056
        },
        {
            "@context": "https://schema.org",
            "@type": "BusStop",
            "name": "Wilmington Bus Station",
            "openingHours": "Mo-Su",
            "address": {
                "@type": "PostalAddress",
                "addressCountry": "United States",
                "addressLocality": "Wilmington-Newark, DE",
                "postalCode": "19801",
                "streetAddress": "101 N French St"
            },
            "latitude": 39.737593,
            "longitude": -75.551012
        }
    ]
}